,Unnamed: 0,City,Lat,Lng,Max Temp,Humidity,Cloudiness,Wind Speed,Country,Date
0,0,pacific grove,36.62,-121.92,70.0,56,40,14.99,US,1595451206
1,1,laguna,38.42,-121.42,84.0,39,1,12.75,US,1595451206
2,2,miri,4.41,114.01,75.2,94,40,2.24,MY,1595451491
3,3,veraval,20.9,70.37,83.28,82,100,13.29,IN,1595451496
4,4,dikson,73.51,80.55,39.96,93,27,7.76,RU,1595451476
5,5,castro,-24.79,-50.01,61.79,72,97,1.99,BR,1595451207
6,6,vaini,-21.2,-175.2,68.0,88,40,3.36,TO,1595451207
7,7,butaritari,3.07,172.79,83.44,75,50,14.81,KI,1595451207
8,8,hilo,19.73,-155.09,82.4,58,90,5.82,US,1595451207
9,9,cape town,-33.93,18.42,55.0,93,0,3.36,ZA,1595451430
10,10,geraldton,-28.77,114.6,60.8,87,40,8.05,AU,1595451476
11,11,atuona,-9.8,-139.03,79.57,74,0,17.83,PF,1595451435
12,12,barrow,71.29,-156.79,39.2,86,90,9.17,US,1595451134
13,13,ahipara,-35.17,173.17,58.14,77,36,15.55,NZ,1595451209
14,14,puerto ayora,-0.74,-90.35,80.6,57,40,18.34,EC,1595451129
15,15,thompson,55.74,-97.86,80.6,42,75,11.41,CA,1595451438
16,16,lebu,-37.62,-73.65,52.57,79,32,2.66,CL,1595451491
17,17,brae,60.4,-1.35,55.4,87,49,10.29,GB,1595451210
18,18,ushuaia,-54.8,-68.3,35.6,59,93,9.17,AR,1595451001
19,19,busselton,-33.65,115.33,57.0,59,38,21.09,AU,1595450984
20,20,colares,38.8,-9.45,73.99,68,0,12.75,PT,1595450963
21,21,lavrentiya,65.58,-171.0,51.15,58,0,4.7,RU,1595451211
22,22,maniitsoq,65.42,-52.9,55.04,73,2,11.36,GL,1595451552
23,23,georgetown,5.41,100.34,78.8,88,40,2.24,MY,1595451212
24,24,mahebourg,-20.41,57.7,69.8,52,75,16.11,MU,1595451412
25,25,tuktoyaktuk,69.45,-133.04,46.4,75,40,9.17,CA,1595451448
26,26,punta arenas,-53.15,-70.92,28.4,100,20,5.82,CL,1595451125
27,27,chuy,-33.7,-53.46,64.4,97,100,5.88,UY,1595451460
28,28,srednekolymsk,67.45,153.68,76.69,34,99,7.83,RU,1595451413
29,29,avarua,-21.21,-159.78,77.0,88,5,13.87,CK,1595451418
30,30,bethel,41.37,-73.41,88.0,58,40,11.41,US,1595451116
31,31,lata,40.16,-8.33,79.0,45,0,4.0,PT,1595451213
32,32,sao joao da barra,-21.64,-41.05,77.0,69,0,11.41,BR,1595451214
33,33,samarai,-10.62,150.67,76.73,82,15,10.49,PG,1595451527
34,34,xuddur,4.12,43.89,73.17,68,61,20.45,SO,1595451215
35,35,namibe,-15.2,12.15,66.31,71,0,2.89,AO,1595451538
36,36,arraial do cabo,-22.97,-42.03,73.4,88,0,9.17,BR,1595451215
37,37,dunedin,-45.87,170.5,39.0,70,3,27.0,NZ,1595451177
38,38,atar,20.52,-13.05,99.86,20,63,4.25,MR,1595451216
39,39,aginskoye,51.1,114.53,63.68,68,100,7.38,RU,1595451557
40,40,luderitz,-26.65,15.16,55.4,87,0,2.24,,1595451557
41,41,gilgit,35.92,74.31,75.0,32,0,1.21,PK,1595451217
42,42,mar del plata,-38.0,-57.56,50.0,93,90,26.4,AR,1595451051
43,43,kaitangata,-46.28,169.85,37.0,76,51,4.0,NZ,1595451123
44,44,hithadhoo,-0.6,73.08,83.5,71,58,5.1,MV,1595451217
45,45,watrous,51.67,-105.47,83.48,51,31,16.17,CA,1595451558
46,46,puerto narino,-3.77,-70.38,82.4,69,75,6.93,CO,1595451558
47,47,hami,42.8,93.45,80.73,27,100,6.06,CN,1595451218
48,48,laminusa,5.55,120.91,83.91,75,94,9.15,PH,1595451559
49,49,nantucket,41.28,-70.1,75.2,88,40,11.41,US,1595451218
50,50,albany,42.6,-73.97,87.01,60,63,1.66,US,1595451219
51,51,ancud,-41.87,-73.82,51.8,57,87,6.93,CL,1595451157
52,52,kloulklubed,7.04,134.26,75.2,94,75,5.06,PW,1595451559
53,53,kapaa,22.08,-159.32,84.0,83,75,8.05,US,1595451219
54,54,jumla,29.27,82.18,61.25,71,100,1.59,NP,1595451560
55,55,donskoye,45.46,41.97,69.8,64,0,8.95,RU,1595451560
56,56,upernavik,72.79,-56.15,47.59,67,0,12.48,GL,1595451220
57,57,pokhara,28.23,83.98,70.95,79,45,1.61,NP,1595451560
58,58,hobart,-42.88,147.33,42.01,80,75,8.05,AU,1595451370
59,59,diapaga,12.07,1.79,82.8,62,9,4.68,BF,1595451561
60,60,poum,-20.23,164.02,70.5,74,89,18.12,NC,1595451220
61,61,staunton,38.15,-79.07,71.6,94,75,10.29,US,1595451561
62,62,tasiilaq,65.61,-37.64,44.6,81,37,5.82,GL,1595451221
63,63,husavik,66.04,-17.34,50.0,76,75,12.75,IS,1595451221
64,64,ende,-8.84,121.66,74.98,76,86,6.31,ID,1595451562
65,65,victoria,22.29,114.16,84.0,79,55,3.0,HK,1595451250
66,66,subirana,15.2,-87.45,89.6,59,75,11.41,HN,1595451562
67,67,marsh harbour,26.54,-77.06,84.02,76,74,17.18,BS,1595451433
68,68,westerland,54.91,8.3,57.2,67,95,10.29,DE,1595451563
69,69,novikovo,51.15,37.89,56.64,74,0,8.52,RU,1595451563
70,70,diffa,13.32,12.61,86.47,52,100,7.83,NE,1595451223
71,71,cidreira,-30.18,-50.21,67.55,69,90,7.18,BR,1595451420
72,72,gloversville,43.05,-74.34,75.99,100,90,6.93,US,1595451563
73,73,rocha,-34.48,-54.33,66.38,97,100,6.53,UY,1595451503
74,74,clyde river,70.47,-68.59,46.4,81,90,2.24,CA,1595451223
75,75,saint george,37.1,-113.58,96.8,18,20,5.82,US,1595451408
76,76,kangaatsiaq,68.31,-53.46,50.32,67,75,10.54,GL,1595451224
77,77,priladozhskiy,59.85,31.48,55.99,99,7,9.95,RU,1595451565
78,78,vestmannaeyjar,63.44,-20.27,52.86,82,42,5.93,IS,1595451224
79,79,san patricio,19.22,-104.7,91.4,70,75,17.22,MX,1595451225
80,80,hasaki,35.73,140.83,73.4,100,75,2.24,JP,1595451225
81,81,khatanga,71.97,102.5,46.81,80,100,14.23,RU,1595451422
82,82,gweta,-20.18,25.23,56.8,37,0,11.21,BW,1595451566
83,83,hermanus,-34.42,19.23,55.0,94,0,3.85,ZA,1595451244
84,84,bathsheba,13.22,-59.52,87.8,55,40,16.11,BB,1595451226
85,85,matara,5.95,80.54,78.21,89,86,4.54,LK,1595451567
86,86,bredasdorp,-34.53,20.04,55.4,93,0,2.24,ZA,1595451226
87,87,port hardy,50.7,-127.42,64.4,72,75,13.87,CA,1595451227
88,88,bluff,-46.6,168.33,39.0,83,96,3.0,NZ,1595451416
89,89,saint-philippe,-21.36,55.77,68.0,64,90,9.17,RE,1595451151
90,90,sztum,53.92,19.03,57.0,68,1,5.99,PL,1595451568
91,91,joshimath,30.57,79.57,61.61,52,43,1.74,IN,1595451227
92,92,grand gaube,-20.01,57.66,66.0,69,68,3.0,MU,1595451304
93,93,chute-aux-outardes,49.12,-68.4,73.4,49,1,18.34,CA,1595451568
94,94,eyl,7.98,49.82,79.23,69,63,25.57,SO,1595451228
95,95,port alfred,-33.59,26.89,63.16,74,0,9.51,ZA,1595451416
96,96,kruisfontein,-34.0,24.73,54.86,52,0,3.47,ZA,1595451228
97,97,canete,-37.8,-73.4,52.16,81,12,1.9,CL,1595451569
98,98,jamestown,42.1,-79.24,80.01,73,75,9.17,US,1595450995
99,99,chapais,49.78,-74.85,73.4,49,90,4.7,CA,1595451570
100,100,nuuk,64.18,-51.72,60.8,59,40,16.11,GL,1595451570
101,101,mataura,-46.19,168.86,39.0,83,95,3.0,NZ,1595451230
102,102,daru,-9.08,143.21,76.55,83,98,10.4,PG,1595451571
103,103,rikitea,-23.12,-134.97,67.26,58,100,14.36,PF,1595451115
104,104,seshcha,53.74,33.34,50.72,90,0,8.86,RU,1595451572
105,105,ketchikan,55.34,-131.65,62.6,72,75,11.41,US,1595451231
106,106,nanortalik,60.14,-45.24,53.19,63,100,14.79,GL,1595451231
107,107,tselina,46.53,41.03,69.21,63,0,7.78,RU,1595451572
108,108,myitkyina,25.38,97.4,73.44,96,100,0.81,MM,1595451572
109,109,keuruu,62.27,24.7,55.99,87,90,12.75,FI,1595451573
110,110,mercedes,-34.65,-59.43,57.99,96,100,1.99,AR,1595451573
111,111,chokurdakh,70.63,147.92,81.18,43,69,3.42,RU,1595451233
112,112,yagodnoye,62.55,149.67,64.89,52,58,4.54,RU,1595451573
113,113,isangel,-19.55,169.27,69.8,68,2,5.82,VU,1595451453
114,114,east london,-33.02,27.91,63.61,52,0,6.26,ZA,1595451234
115,115,provideniya,64.38,-173.3,44.6,87,75,8.95,RU,1595451234
116,116,raudeberg,61.99,5.14,53.6,71,40,10.29,NO,1595451234
117,117,nikolskoye,59.7,30.79,60.8,72,75,6.71,RU,1595451234
118,118,ust-ishim,57.69,71.17,50.99,75,1,5.23,RU,1595451576
119,119,cockburn town,21.46,-71.14,86.0,66,40,17.22,TC,1595451576
120,120,saint-pierre,-21.34,55.48,68.0,64,90,9.17,RE,1595451235
121,121,mersing,2.43,103.84,75.2,94,85,4.7,MY,1595451330
122,122,tabou,4.42,-7.35,75.58,86,100,11.25,CI,1595451235
123,123,port elizabeth,-33.92,25.57,59.0,100,0,5.82,ZA,1595451576
124,124,kontagora,10.4,5.47,75.36,84,100,2.51,NG,1595451577
125,125,amga,60.9,131.96,56.93,70,35,6.24,RU,1595451577
126,126,sao miguel do araguaia,-13.28,-50.16,81.61,34,0,1.25,BR,1595451577
127,127,warmbad,-28.45,18.73,63.59,25,0,12.55,,1595451578
128,128,cacu,-18.56,-51.13,77.94,33,0,5.28,BR,1595451578
129,129,bambous virieux,-20.34,57.76,69.8,52,75,16.11,MU,1595451237
130,130,ust-omchug,61.15,149.63,59.76,57,28,5.68,RU,1595451237
131,131,eenhana,-17.47,16.33,60.8,37,0,2.24,,1595451237
132,132,pinheiro machado,-31.58,-53.38,71.01,74,100,8.99,BR,1595451579
133,133,ust-kut,56.79,105.77,53.69,89,47,2.46,RU,1595451237
134,134,dingle,11.0,122.67,76.42,87,81,4.27,PH,1595451493
135,135,houma,29.6,-90.72,93.99,59,40,12.75,US,1595451579
136,136,nome,64.5,-165.41,57.0,87,90,4.7,US,1595451384
137,137,northampton,40.88,-75.25,86.0,88,31,9.24,US,1595451579
138,138,cayenne,4.93,-52.33,77.0,94,96,3.36,GF,1595451238
139,139,kadipur,26.17,82.38,83.32,78,44,1.97,IN,1595451580
140,140,port-gentil,-0.72,8.78,76.24,81,52,12.55,GA,1595451239
141,141,narsaq,60.92,-46.05,66.2,25,38,28.86,GL,1595451239
142,142,krasne,49.91,24.61,53.6,93,0,1.61,UA,1595451367
143,143,muros,42.78,-9.06,75.99,66,0,5.99,ES,1595451239
144,144,sargatskoye,55.61,73.5,56.79,85,8,4.56,RU,1595451581
145,145,jalu,29.03,21.55,78.19,54,0,17.78,LY,1595451240
146,146,saskylakh,71.92,114.08,45.34,93,100,10.54,RU,1595451240
147,147,charlestown,-32.95,151.67,48.0,93,99,4.23,AU,1595451240
148,148,asasa,7.1,39.2,55.83,84,80,5.84,ET,1595451582
149,149,antalaha,-14.9,50.28,66.09,79,91,11.21,MG,1595451515
150,150,liaocheng,36.44,115.96,68.74,84,82,5.55,CN,1595451582
151,151,dzhebariki-khaya,62.22,135.8,62.38,61,0,1.25,RU,1595451469
152,152,omsukchan,62.53,155.8,62.85,34,32,6.51,RU,1595451241
153,153,lompoc,34.64,-120.46,69.01,64,4,8.05,US,1595451241
154,154,phangnga,8.45,98.53,77.0,100,40,1.12,TH,1595451583
155,155,yulara,-25.24,130.99,41.0,80,0,8.05,AU,1595451526
156,156,port macquarie,-31.43,152.92,48.99,96,100,4.65,AU,1595451496
157,157,hirara,24.8,125.28,83.7,81,93,11.45,JP,1595451242
158,158,lagoa,39.05,-27.98,69.75,71,0,2.86,PT,1595451487
159,159,avera,33.19,-82.53,95.0,41,1,6.93,US,1595451529
160,160,ribeira grande,38.52,-28.7,71.6,73,40,5.82,PT,1595451490
161,161,kumphawapi,17.11,103.01,77.22,81,100,5.86,TH,1595451584
162,162,port-cartier,50.03,-66.87,73.4,56,40,9.17,CA,1595451446
163,163,methoni,36.82,21.7,73.4,78,0,9.4,GR,1595451584
164,164,talnakh,69.49,88.4,51.8,87,0,22.37,RU,1595451463
165,165,santa marinella,42.03,11.85,73.99,53,1,1.01,IT,1595451585
166,166,cabo san lucas,22.89,-109.91,93.0,65,20,12.75,MX,1595451232
167,167,airai,-8.93,125.41,53.58,53,100,4.03,TL,1595451463
168,168,ahuimanu,21.44,-157.84,81.0,74,40,9.17,US,1595451531
169,169,ormara,25.21,64.64,84.63,80,48,13.85,PK,1595451585
170,170,vila franca do campo,37.72,-25.43,69.8,64,40,6.93,PT,1595451246
171,171,tomohon,1.33,124.84,75.2,94,40,2.24,ID,1595451586
172,172,bulungu,-4.55,18.6,80.1,32,100,1.88,CD,1595451586
173,173,liverpool,53.41,-2.98,62.6,72,75,8.05,GB,1595451320
174,174,mount gambier,-37.83,140.77,44.6,93,90,6.93,AU,1595451470
175,175,navrongo,10.9,-1.09,80.08,74,45,4.32,GH,1595451587
176,176,saint-augustin,51.23,-58.65,70.68,46,100,9.28,CA,1595451474
177,177,awbari,26.59,12.78,83.16,20,0,10.85,LY,1595451587
178,178,petropavlovsk-kamchatskiy,53.05,158.65,51.8,87,43,8.95,RU,1595451468
179,179,sao jose do egito,-7.48,-37.27,72.81,45,46,8.46,BR,1595451587
180,180,artvin,41.17,41.83,68.0,88,37,9.17,TR,1595451247
181,181,mount isa,-20.73,139.5,51.8,37,0,3.36,AU,1595451550
182,182,carndonagh,55.25,-7.27,64.4,82,75,6.93,IE,1595451248
183,183,aleksandrov gay,50.15,48.57,72.57,53,0,5.91,RU,1595451248
184,184,pisco,-13.7,-76.22,68.0,72,0,6.93,PE,1595451588
185,185,acapulco,16.86,-99.89,86.0,70,40,8.05,MX,1595451588
186,186,torbay,47.67,-52.73,73.99,49,75,17.22,CA,1595451451
187,187,kalmar,56.66,16.36,59.0,76,17,9.17,SE,1595451577
188,188,constitucion,-35.33,-72.42,53.22,71,23,3.62,CL,1595451249
189,189,tezu,27.92,96.17,76.68,75,99,1.79,IN,1595451494
190,190,sur,22.57,59.53,83.91,74,69,20.24,OM,1595451520
191,191,caravelas,-17.71,-39.25,69.58,67,0,3.51,BR,1595451591
192,192,divinopolis,-20.14,-44.88,69.57,48,0,1.92,BR,1595451591
193,193,vagur,61.47,-6.81,51.78,88,100,7.09,FO,1595451591
194,194,new norfolk,-42.78,147.06,42.01,87,65,1.01,AU,1595451541
195,195,qaanaaq,77.48,-69.36,48.04,52,0,1.36,GL,1595451459
196,196,vao,-22.67,167.48,67.42,73,100,17.94,NC,1595451592
197,197,korla,41.76,86.15,73.15,49,94,12.93,CN,1595451251
198,198,esperance,-33.87,121.9,55.4,58,75,19.46,AU,1595451592
199,199,carnarvon,-24.87,113.63,57.2,100,0,6.93,AU,1595451592
200,200,betong,5.77,101.07,69.94,94,88,1.52,TH,1595451592
201,201,fuxin,42.02,121.66,72.66,61,12,2.62,CN,1595451593
202,202,honningsvag,70.98,25.97,48.2,93,75,10.29,NO,1595451252
203,203,grand-lahou,5.14,-5.02,74.8,90,88,10.02,CI,1595451593
204,204,kawerau,-38.1,176.7,54.0,72,3,4.0,NZ,1595451593
205,205,yarada,17.65,83.27,82.4,88,90,4.7,IN,1595451594
206,206,severo-kurilsk,50.68,156.12,51.78,84,33,0.22,RU,1595451547
207,207,faya,18.39,42.45,71.6,88,23,3.4,SA,1595451594
208,208,margate,51.38,1.39,64.0,64,24,1.99,GB,1595451594
209,209,shiyan,32.65,110.78,70.97,90,100,4.5,CN,1595451595
210,210,qinggang,46.68,126.08,66.29,89,1,5.17,CN,1595451595
211,211,jaguaquara,-13.53,-39.97,62.02,79,0,5.23,BR,1595451595
212,212,berlevag,70.86,29.09,48.2,100,75,11.41,NO,1595451547
213,213,batagay-alyta,67.8,130.41,65.93,55,0,4.16,RU,1595451595
214,214,tiksi,71.69,128.87,51.91,80,66,3.53,RU,1595451254
215,215,leningradskiy,69.38,178.42,60.66,47,100,4.12,RU,1595451159
216,216,tahe,52.33,124.73,60.66,78,78,1.63,CN,1595451502
217,217,kattivakkam,13.22,80.32,84.2,83,40,6.93,IN,1595451596
218,218,tokur,53.13,132.9,51.6,93,82,3.44,RU,1595451596
219,219,saint-claude,46.5,5.83,71.6,73,27,6.93,FR,1595451597
220,220,den helder,52.96,4.76,59.0,71,90,4.7,NL,1595451597
221,221,ouegoa,-20.35,164.43,69.03,74,56,15.39,NC,1595451597
222,222,tuatapere,-46.13,167.68,39.0,83,95,3.0,NZ,1595451257
223,223,yellowknife,62.46,-114.35,64.4,93,90,10.29,CA,1595451598
224,224,codrington,-38.27,141.97,47.28,79,100,4.54,AU,1595451257
225,225,souillac,-20.52,57.52,69.8,52,75,16.11,MU,1595451257
226,226,rio gallegos,-51.62,-69.22,23.0,79,0,8.05,AR,1595451258
227,227,ouro preto do oeste,-10.75,-62.22,89.17,38,0,1.36,BR,1595451599
228,228,santa cruz cabralia,-16.28,-39.02,75.2,57,0,5.82,BR,1595451599
229,229,chicama,-7.84,-79.15,69.35,61,3,9.86,PE,1595451258
230,230,faanui,-16.48,-151.75,77.22,79,38,19.01,PF,1595451258
231,231,ulladulla,-35.35,150.47,46.4,81,90,10.29,AU,1595451259
232,232,arlit,18.74,7.39,99.39,15,48,12.8,NE,1595451259
233,233,tarakan,3.3,117.63,78.13,87,58,8.37,ID,1595451600
234,234,norman wells,65.28,-126.83,55.4,76,75,18.34,CA,1595451600
235,235,monteagudo,-19.82,-63.98,81.23,34,2,6.82,BO,1595451601
236,236,ostrovnoy,68.05,39.51,59.58,78,32,8.32,RU,1595451601
237,237,sao luiz gonzaga,-28.41,-54.96,70.47,82,100,7.09,BR,1595451601
238,238,yingcheng,30.95,113.55,82.4,88,65,2.24,CN,1595451601
239,239,necochea,-38.55,-58.74,48.0,98,100,21.0,AR,1595451060
240,240,presidencia roque saenz pena,-26.79,-60.44,72.45,58,15,10.38,AR,1595451260
241,241,shar,49.59,81.05,61.65,69,88,5.37,KZ,1595451603
242,242,ucluelet,48.93,-125.55,61.0,93,90,5.82,CA,1595451261
243,243,krasnodar,45.0,40.0,69.8,77,0,6.71,RU,1595451604
244,244,yumen,40.28,97.2,71.04,41,100,1.25,CN,1595451605
245,245,baykit,61.67,96.37,54.84,81,99,2.86,RU,1595451606
246,246,kasongo-lunda,-6.47,16.82,72.46,27,75,0.74,CD,1595451607
247,247,sioux lookout,50.1,-91.92,80.6,34,75,6.93,CA,1595451263
248,248,ishigaki,24.34,124.16,84.6,81,73,11.43,JP,1595451006
249,249,ballina,-28.87,153.57,53.6,87,90,8.05,AU,1595451607
250,250,quatre cocos,-20.21,57.76,69.8,52,75,16.11,MU,1595451608
251,251,shiliguri,26.7,88.43,77.61,90,89,2.8,IN,1595451608
252,252,znamenskoye,57.13,73.83,49.14,82,0,5.53,RU,1595451609
253,253,ames,42.03,-93.62,81.0,51,20,3.36,US,1595451609
254,254,vila velha,-20.33,-40.29,78.01,69,0,11.41,BR,1595451478
255,255,eureka,40.8,-124.16,72.0,53,52,3.0,US,1595451537
256,256,oranjemund,-28.55,16.43,59.29,70,0,2.77,,1595451265
257,257,goderich,43.75,-81.72,79.0,80,3,7.63,CA,1595451573
258,258,obera,-27.49,-55.12,69.85,73,100,3.47,AR,1595451610
259,259,padang,-0.95,100.35,73.4,94,40,6.93,ID,1595451498
260,260,salou,41.08,1.14,79.0,78,22,1.97,ES,1595451345
261,261,college,64.86,-147.8,57.2,71,75,5.82,US,1595451611
262,262,sri aman,1.24,111.46,75.2,100,100,0.92,MY,1595451611
263,263,kodiak,57.79,-152.41,64.4,48,1,18.34,US,1595451522
264,264,sakakah,29.97,40.21,95.0,10,0,4.7,SA,1595451267
265,265,shipitsyno,61.28,46.52,59.9,96,90,5.97,RU,1595451466
266,266,chernyshevskiy,63.01,112.47,48.79,100,79,4.43,RU,1595451612
267,267,san andres,12.58,-81.7,87.8,74,75,11.41,CO,1595451613
268,268,sven,53.18,34.55,51.78,88,0,6.44,RU,1595451614
269,269,luang prabang,19.89,102.13,72.54,87,21,0.78,LA,1595451614
270,270,te anau,-45.42,167.72,33.17,90,67,2.73,NZ,1595451004
271,271,merauke,-8.47,140.33,74.73,82,2,11.99,ID,1595451305
272,272,adrar,20.5,-10.07,102.36,9,36,7.2,MR,1595451269
273,273,kautokeino,69.01,23.04,48.69,88,100,19.33,NO,1595451615
274,274,bangassou,4.74,22.82,69.87,94,100,1.86,CF,1595451615
275,275,grand-santi,4.25,-54.38,78.87,93,97,3.11,GF,1595451269
276,276,shenjiamen,29.96,122.3,79.5,87,89,23.0,CN,1595451498
277,277,sao filipe,14.9,-24.5,78.39,85,99,7.92,CV,1595451211
278,278,marfino,55.7,37.38,62.01,87,47,8.95,RU,1595451616
279,279,katsuyama,36.06,136.5,71.6,94,75,3.36,JP,1595451616
280,280,vardo,70.37,31.11,48.2,100,90,31.09,NO,1595451270
281,281,kuloy,61.03,42.49,58.41,98,93,5.91,RU,1595451617
282,282,pueblo,38.25,-104.61,93.2,23,1,9.17,US,1595451617
283,283,hobyo,5.35,48.53,77.27,75,23,27.11,SO,1595451617
284,284,henties bay,-22.12,14.28,63.0,71,0,8.57,,1595451618
285,285,bowen,-20.02,148.23,63.0,93,90,4.7,AU,1595451493
286,286,zlitan,32.47,14.57,76.62,75,0,10.65,LY,1595451618
287,287,worland,44.02,-107.96,97.0,13,1,8.05,US,1595451619
288,288,kyra,49.58,111.98,61.72,64,99,0.96,RU,1595451481
289,289,dalby,-27.18,151.27,51.01,79,99,1.01,AU,1595451619
290,290,kagadi,0.96,30.8,64.26,94,92,1.95,UG,1595451620
291,291,aksay,47.26,39.87,71.01,56,44,4.47,RU,1595451620
292,292,shimoda,34.67,138.95,70.0,94,100,7.61,JP,1595451273
293,293,mabaruma,8.2,-59.78,81.66,77,57,5.84,GY,1595451620
294,294,asuncion,-25.3,-57.64,89.6,31,100,12.75,PY,1595451621
295,295,pulaski,34.77,-92.3,86.0,78,75,4.7,US,1595451621
296,296,svetlyy,54.67,20.13,51.8,87,40,8.95,RU,1595451621
297,297,la ronge,55.1,-105.28,78.8,57,75,9.17,CA,1595451484
298,298,saquena,-4.67,-73.52,88.83,54,84,1.63,PE,1595451623
299,299,alexandria,31.22,29.96,77.43,82,0,13.04,EG,1595451535
300,300,sabya,17.15,42.63,89.6,62,20,4.7,SA,1595451623
301,301,hay river,60.82,-115.8,64.4,93,75,5.82,CA,1595451276
302,302,kavieng,-2.57,150.8,82.65,76,31,14.29,PG,1595451624
303,303,ponta do sol,32.67,-17.1,69.01,72,2,3.27,PT,1595451039
304,304,paamiut,61.99,-49.67,46.92,83,87,9.08,GL,1595451276
305,305,manuk mangkaw,4.8,119.85,82.35,76,100,6.96,PH,1595451624
306,306,ust-nera,64.57,143.2,75.04,35,96,4.18,RU,1595451625
307,307,kununurra,-15.77,128.73,64.4,40,24,4.7,AU,1595451015
308,308,klyuchi,52.27,79.17,59.36,80,0,3.87,RU,1595451625
309,309,sorland,67.67,12.69,53.6,76,40,12.75,NO,1595451515
310,310,cuenca,-2.88,-78.98,60.8,63,90,4.7,EC,1595451625
311,311,mbandaka,0.05,18.26,74.77,68,100,3.27,CD,1595451523
312,312,nishihara,26.18,127.76,82.4,83,40,3.36,JP,1595451488
313,313,mengcheng,33.26,116.57,70.45,96,91,7.54,CN,1595451626
314,314,sipe sipe,-17.45,-66.38,84.2,13,20,9.37,BO,1595451627
315,315,sitka,57.05,-135.33,59.0,77,90,4.7,US,1595451274
316,316,karratha,-20.74,116.85,68.29,46,0,5.44,AU,1595451279
317,317,plettenberg bay,-34.05,23.37,59.74,62,0,3.42,ZA,1595451627
318,318,livingston,55.9,-3.52,59.0,100,75,4.7,GB,1595451339
319,319,aklavik,68.22,-135.01,50.0,61,75,5.82,CA,1595451486
320,320,balapulang,-7.05,109.08,73.0,88,99,6.02,ID,1595451628
321,321,escanaba,45.75,-87.06,66.2,93,90,6.93,US,1595451629
322,322,roma,43.21,-75.46,73.99,88,90,5.82,US,1595451618
323,323,angoche,-16.23,39.91,69.42,75,27,9.8,MZ,1595451629
324,324,scarborough,54.28,-0.4,61.0,80,98,3.0,GB,1595451281
325,325,iqaluit,63.75,-68.51,48.2,87,90,2.24,CA,1595451167
326,326,marovoay,-16.1,46.63,69.8,56,20,8.05,MG,1595451631
327,327,sangmelima,2.93,11.98,67.53,98,98,2.57,CM,1595451631
328,328,aketi,2.74,23.78,70.63,94,97,0.98,CD,1595451632
329,329,tommot,58.96,126.29,56.64,83,0,2.44,RU,1595451282
330,330,ambilobe,-13.2,49.05,65.82,73,100,3.33,MG,1595451282
331,331,ust-kuyga,70.02,135.6,79.47,38,56,3.44,RU,1595451283
332,332,tavda,58.04,65.27,58.28,79,0,5.41,RU,1595451632
333,333,la macarena,2.18,-73.78,82.15,77,92,0.11,CO,1595451633
334,334,yarmouth,41.71,-70.23,82.4,61,1,6.93,US,1595451633
335,335,canmore,51.08,-115.35,70.0,68,75,8.05,CA,1595451633
336,336,yeniseysk,58.45,92.17,48.38,97,1,3.62,RU,1595451633
337,337,buncrana,55.13,-7.45,56.53,93,60,3.27,IE,1595451634
338,338,carnduff,49.17,-101.8,75.99,73,11,13.0,CA,1595451634
339,339,kahului,20.89,-156.47,89.6,49,40,16.11,US,1595451546
340,340,alice springs,-23.7,133.88,33.8,74,0,4.7,AU,1595451285
341,341,cisternino,40.74,17.42,82.0,68,5,2.24,IT,1595451635
342,342,comodoro rivadavia,-45.87,-67.5,39.2,80,40,3.36,AR,1595451522
343,343,tazovskiy,67.47,78.7,44.62,80,0,15.14,RU,1595451635
344,344,porto alegre,-30.03,-51.23,84.2,48,98,1.12,BR,1595451553
345,345,bandarbeyla,9.49,50.81,77.27,77,22,30.67,SO,1595451553
346,346,guerrero negro,27.98,-114.06,77.4,54,6,13.69,MX,1595451493
347,347,davila,18.47,120.58,82.08,81,63,5.59,PH,1595451636
348,348,taoudenni,22.68,-3.98,105.31,16,41,7.65,ML,1595451286
349,349,makakilo city,21.35,-158.09,82.4,69,1,10.29,US,1595451287
350,350,faro,37.02,-7.93,78.01,83,0,9.17,PT,1595451434
351,351,rabak,13.18,32.74,80.83,67,95,16.26,SD,1595451637
352,352,la campana,37.57,-5.43,84.2,54,0,8.05,ES,1595451637
353,353,hamilton,39.18,-84.53,77.0,83,40,8.05,US,1595451382
354,354,soyo,-6.13,12.37,71.78,82,69,7.14,AO,1595451288
355,355,mahon,39.89,4.27,75.2,64,20,4.7,ES,1595451638
356,356,fortuna,40.6,-124.16,62.6,77,20,14.99,US,1595451496
357,357,tamandare,-8.76,-35.1,74.73,77,8,9.57,BR,1595451639
358,358,astana,51.18,71.45,50.0,93,0,6.71,KZ,1595451639
359,359,katherine,-14.47,132.27,57.2,44,0,6.93,AU,1595451289
360,360,faratsiho,-19.4,46.95,43.97,90,48,6.51,MG,1595451639
361,361,mavrovi anovi,41.7,20.76,58.73,76,1,2.93,MK,1595451640
362,362,plouzane,48.38,-4.62,60.8,77,100,5.82,FR,1595451640
363,363,belaya gora,68.53,146.42,83.19,38,28,3.29,RU,1595451640
364,364,pirai do sul,-24.53,-49.95,72.0,69,91,1.01,BR,1595451640
365,365,tateyama,34.98,139.87,75.99,100,100,5.01,JP,1595451540
366,366,mumford,5.26,-0.76,74.52,93,100,10.45,GH,1595451641
367,367,port lincoln,-34.73,135.87,48.7,83,1,9.22,AU,1595451362
368,368,remanso,-9.62,-42.08,79.0,55,33,11.77,BR,1595451642
369,369,port hedland,-20.32,118.57,59.0,51,0,6.93,AU,1595451504
370,370,bengkulu,-3.8,102.27,74.23,88,90,3.65,ID,1595451642
371,371,komsomolskiy,40.43,71.72,77.0,36,0,6.93,UZ,1595451642
372,372,acajutla,13.59,-89.83,87.8,62,40,5.19,SV,1595451616
373,373,nanchang,28.68,115.88,81.68,71,100,6.73,CN,1595451641
374,374,mus,39.0,41.75,65.91,62,0,4.16,TR,1595451536
375,375,baruun-urt,46.68,113.28,70.41,47,81,9.69,MN,1595451643
376,376,kyren,51.68,102.14,59.59,83,100,0.29,RU,1595451292
377,377,sisimiut,66.94,-53.67,56.77,64,4,4.32,GL,1595451644
378,378,zhigansk,66.77,123.37,58.96,71,35,19.44,RU,1595451293
379,379,solginskiy,61.05,41.34,57.96,95,96,7.61,RU,1595451644
380,380,hambantota,6.12,81.12,79.74,84,94,10.2,LK,1595451645
381,381,opuwo,-18.06,13.84,58.33,34,0,8.75,,1595451645
382,382,inongo,-1.95,18.27,74.46,63,100,6.2,CD,1595451645
383,383,flinders,-34.58,150.86,46.99,87,10,1.99,AU,1595451549
384,384,kavaratti,10.57,72.64,81.79,81,71,12.35,IN,1595451294
385,385,yongchang,30.04,119.73,88.0,54,100,4.05,CN,1595451646
386,386,kidal,18.44,1.41,97.5,26,51,8.16,ML,1595451294
387,387,waingapu,-9.66,120.26,71.8,80,50,9.8,ID,1595451646
388,388,pahrump,36.21,-115.98,102.0,12,0,14.0,US,1595451647
389,389,fairbanks,64.84,-147.72,60.01,82,90,3.36,US,1595451161
390,390,iskateley,67.68,53.15,62.13,68,0,10.02,RU,1595451647
391,391,khasan,42.43,130.64,65.89,92,0,6.44,RU,1595451648
392,392,manaus,-3.1,-60.02,86.0,62,40,6.93,BR,1595451649
393,393,gornopravdinsk,60.05,69.9,49.46,83,0,4.83,RU,1595451541
394,394,bokoro,12.38,17.06,77.99,75,54,8.68,TD,1595451649
395,395,giresun,40.5,38.5,71.6,83,40,3.36,TR,1595451650
396,396,manado,1.49,124.85,75.2,94,40,2.24,ID,1595451534
397,397,morros,-9.45,-46.3,81.97,40,50,5.41,BR,1595451297
398,398,vidim,56.41,103.11,50.74,95,4,3.67,RU,1595451650
399,399,luanda,-8.84,13.23,69.8,88,0,3.36,AO,1595451297
400,400,durusu,41.31,28.68,77.0,78,0,12.75,TR,1595451651
401,401,bima,-8.47,118.72,72.23,89,44,4.23,ID,1595451651
402,402,bonnyville,54.27,-110.73,73.4,73,75,3.36,CA,1595451651
403,403,coahuayana,18.73,-103.68,77.0,83,75,9.17,MX,1595451651
404,404,ferkessedougou,9.6,-5.2,74.44,89,34,2.13,CI,1595451652
405,405,praya,14.92,-23.51,80.6,78,20,9.17,CV,1595451652
406,406,champerico,14.3,-91.92,85.39,66,31,6.91,GT,1595451603
407,407,ilulissat,69.22,-51.1,55.4,50,40,3.36,GL,1595451299
408,408,orcopampa,-15.27,-72.34,54.93,35,55,9.53,PE,1595451652
409,409,thongwa,16.76,96.53,78.8,88,40,3.36,MM,1595451653
410,410,alyangula,-13.85,136.42,59.0,93,0,11.01,AU,1595451299
411,411,whitehorse,60.72,-135.05,57.2,82,75,2.28,CA,1595451299
412,412,saldanha,-33.01,17.94,55.4,87,0,9.17,ZA,1595451577
413,413,siilinjarvi,63.08,27.67,55.4,93,75,12.75,FI,1595451654
414,414,agde,43.31,3.48,72.0,88,42,6.93,FR,1595451654
415,415,minggang,32.46,114.05,70.57,96,100,4.12,CN,1595451654
416,416,pevek,69.7,170.31,52.79,53,100,11.86,RU,1595451301
417,417,coquimbo,-29.95,-71.34,59.0,58,40,14.99,CL,1595451301
418,418,klaksvik,62.23,-6.59,50.0,87,100,4.7,FO,1595451301
419,419,okhotsk,59.38,143.3,56.86,69,23,3.56,RU,1595451504
420,420,iquique,-20.22,-70.14,62.6,63,90,8.05,CL,1595451367
421,421,jacareacanga,-6.22,-57.75,90.9,42,0,1.39,BR,1595451302
422,422,barddhaman,23.25,87.85,81.64,85,98,7.72,IN,1595451656
423,423,dudinka,69.41,86.18,51.8,87,0,22.37,RU,1595451656
424,424,nurlat,54.43,50.81,60.73,93,76,4.43,RU,1595451645
425,425,ventspils,57.39,21.56,59.0,72,2,5.82,LV,1595451391
426,426,berdigestyakh,62.1,126.7,59.63,82,0,4.54,RU,1595451303
427,427,ponta delgada,37.73,-25.67,69.8,64,40,5.82,PT,1595451657
428,428,youhao,47.87,128.83,62.6,75,48,0.6,CN,1595451657
429,429,pringsewu,-5.36,104.97,71.67,93,100,1.43,ID,1595451658
430,430,north bend,43.41,-124.22,77.0,77,1,19.46,US,1595451304
431,431,terrace,54.52,-128.6,60.8,72,90,6.93,CA,1595451179
432,432,sechura,-5.56,-80.82,74.03,56,7,16.98,PE,1595451534
433,433,caranan,13.52,123.02,78.76,85,0,3.33,PH,1595451658
434,434,novosheshminsk,55.07,51.23,61.79,90,91,3.58,RU,1595451658
435,435,tahoua,14.89,5.27,87.8,62,23,9.17,NE,1595451659
436,436,chengde,40.97,117.94,62.58,66,0,1.81,CN,1595451659
437,437,rockport,28.02,-97.05,95.0,52,1,10.29,US,1595451514
438,438,flin flon,54.77,-101.86,78.8,57,75,9.17,CA,1595451305
439,439,taksimo,56.34,114.88,56.79,83,100,1.92,RU,1595451660
440,440,maymyo,22.03,96.47,67.15,100,100,1.86,MM,1595451660
441,441,alekseyevsk,57.84,108.35,57.15,88,88,1.95,RU,1595451306
442,442,coffs harbour,-30.3,153.13,50.0,100,99,2.24,AU,1595451512
443,443,tabuk,17.42,121.44,74.82,88,56,2.53,PH,1595451661
444,444,muana,-1.53,-49.22,84.11,65,95,2.19,BR,1595451661
445,445,aguimes,27.91,-15.45,75.0,69,40,24.16,ES,1595451661
446,446,guanica,17.97,-66.91,87.01,63,37,5.01,PR,1595451661
447,447,ocos,14.51,-92.19,87.8,70,40,11.41,GT,1595451662
448,448,warrenton,-28.11,24.85,46.38,44,0,5.14,ZA,1595451662
449,449,grand forks,47.93,-97.03,75.99,50,20,12.75,US,1595451662
450,450,ortigueira,-24.21,-50.95,64.71,69,88,2.19,BR,1595451662
451,451,buala,-8.14,159.59,81.03,81,71,9.84,SB,1595451543
452,452,muzhi,65.37,64.67,49.93,77,0,6.44,RU,1595451663
453,453,cortez,37.35,-108.59,78.01,44,75,5.82,US,1595451663
454,454,tarancon,40.01,-3.01,87.01,27,19,2.48,ES,1595451663
455,455,mocuba,-16.84,36.99,60.39,93,19,5.21,MZ,1595451664
456,456,liwale,-9.77,37.93,64.74,59,19,4.45,TZ,1595451664
457,457,gat,31.61,34.76,80.01,63,0,0.4,IL,1595451664
458,458,kansanshi,-12.1,26.43,55.87,54,59,6.2,ZM,1595451664
459,459,dongsheng,39.82,109.98,65.55,70,80,8.52,CN,1595451665
460,460,sola,-13.88,167.55,77.81,78,65,20.6,VU,1595451665
461,461,deputatskiy,69.3,139.9,71.55,48,81,7.0,RU,1595451529
462,462,whitianga,-36.83,175.7,54.0,92,12,8.01,NZ,1595451665
463,463,itarema,-2.92,-39.92,78.33,70,4,14.58,BR,1595451666
464,464,camacha,33.08,-16.33,69.8,68,75,11.41,PT,1595451310
465,465,beroroha,-21.67,45.17,61.93,63,0,6.98,MG,1595451666
466,466,westport,41.14,-73.36,88.0,78,1,9.17,US,1595451662
467,467,kalangala,-0.31,32.23,73.4,69,20,4.7,UG,1595451667
468,468,baoning,25.34,110.03,77.0,88,34,2.24,CN,1595451667
469,469,hurricane,37.18,-113.29,96.8,18,20,5.82,US,1595451667
470,470,polovinnoye,54.79,65.99,59.7,76,95,7.76,RU,1595451667
471,471,epe,6.58,3.98,75.72,90,99,6.35,NG,1595451667
472,472,mamallapuram,12.63,80.17,84.2,83,40,6.93,IN,1595451668
473,473,contamana,-7.33,-75.02,89.71,47,36,4.88,PE,1595451668
474,474,kachug,53.96,105.88,58.41,92,100,2.89,RU,1595451668
475,475,cermik,38.14,39.45,80.6,32,0,2.24,TR,1595451669
476,476,hofn,64.25,-15.21,50.58,81,95,9.28,IS,1595451312
477,477,rassvet,46.83,40.75,68.88,64,1,8.21,RU,1595451669
478,478,ubon ratchathani,15.22,104.85,77.0,100,20,4.38,TH,1595451669
479,479,cherskiy,68.75,161.3,73.85,37,100,10.2,RU,1595451121
480,480,sawakin,19.11,37.33,89.4,51,86,9.6,SD,1595451670
481,481,cotonou,6.37,2.42,77.0,94,40,9.17,BJ,1595451670
482,482,los llanos de aridane,28.66,-17.92,73.4,73,15,14.99,ES,1595451527
483,483,paraopeba,-19.28,-44.4,75.2,44,0,6.93,BR,1595451670
484,484,bayan,46.08,127.4,66.25,79,0,3.96,CN,1595451314
485,485,shache,38.42,77.24,74.44,20,33,10.92,CN,1595451671
486,486,ekibastuz,51.67,75.37,65.3,56,0,2.71,KZ,1595451671
487,487,korcula,42.96,17.14,80.6,47,0,3.36,HR,1595451671
488,488,kiruna,67.86,20.23,46.4,93,100,11.41,SE,1595451673
489,489,orlik,52.52,99.83,51.71,83,97,1.48,RU,1595451673
490,490,coihaique,-45.58,-72.07,33.8,80,75,4.7,CL,1595451390
491,491,nzerekore,7.76,-8.82,69.01,97,31,1.88,GN,1595451674
492,492,mosetse,-20.75,26.65,53.71,50,0,13.76,BW,1595451674
493,493,independencia,-5.4,-40.31,78.67,35,39,5.64,BR,1595451675
494,494,roald,62.58,6.13,51.8,71,75,8.05,NO,1595451316
495,495,plesetsk,62.71,40.29,59.49,98,78,8.5,RU,1595451675
496,496,sorong,-0.88,131.25,77.4,86,26,11.7,ID,1595451317
497,497,stanovoye,52.76,38.36,54.63,86,1,9.22,RU,1595451676
498,498,santiago de cao,-7.96,-79.24,63.41,78,4,14.16,PE,1595451676
499,499,anloga,5.79,0.9,75.2,88,20,9.17,GH,1595451676
500,500,caete,-19.88,-43.67,75.2,44,0,6.93,BR,1595451676
501,501,kaupanger,61.18,7.24,48.2,70,40,21.92,NO,1595451676
502,502,nhulunbuy,-12.23,136.77,68.0,94,34,4.7,AU,1595451677
503,503,tighina,46.83,29.47,68.0,52,90,2.24,MD,1595451677
504,504,carberry,49.87,-99.36,75.2,60,40,17.22,CA,1595451677
505,505,ugoofaaru,5.67,73.0,82.44,77,98,21.52,MV,1595451318
506,506,sayat,38.78,63.88,84.2,39,0,4.7,TM,1595451679
507,507,pemangkat,1.17,108.97,75.65,91,81,5.14,ID,1595451605
508,508,tahta,26.77,31.5,84.47,24,2,9.01,EG,1595451679
509,509,oksfjord,70.24,22.35,51.8,81,90,19.46,NO,1595451679
510,510,kanchanaburi,14.63,99.1,75.06,85,98,2.39,TH,1595451680
511,511,tura,25.52,90.22,74.19,97,100,4.85,IN,1595451320
512,512,le vauclin,14.55,-60.84,86.0,66,40,18.34,MQ,1595451680
513,513,sistranda,63.73,8.83,51.8,81,75,17.22,NO,1595451680
514,514,dahuk,36.87,42.99,86.65,17,0,7.16,IQ,1595451681
515,515,manacapuru,-3.3,-60.62,80.6,78,40,3.36,BR,1595451681
516,516,moose factory,51.26,-80.61,60.8,82,1,10.29,CA,1595451681
517,517,ojinaga,29.57,-104.42,96.8,22,40,3.36,MX,1595451681
518,518,puerto escondido,15.85,-97.07,86.0,70,40,11.41,MX,1595451682
519,519,dalnegorsk,44.56,135.57,63.81,86,100,1.3,RU,1595451609
520,520,broome,42.25,-75.83,81.0,74,75,4.7,US,1595451321
521,521,pangnirtung,66.15,-65.71,48.2,100,90,11.41,CA,1595451322
522,522,bere,9.32,16.16,76.57,80,75,4.52,TD,1595451683
523,523,kastamonu,41.5,33.67,54.45,75,0,2.46,TR,1595451683
524,524,aswan,24.09,32.91,89.2,18,0,13.33,EG,1595451683
525,525,lokosovo,61.13,74.82,48.79,75,2,8.25,RU,1595451683
526,526,kansk,56.2,95.72,51.1,94,0,6.55,RU,1595451683
527,527,caruray,10.31,119.01,80.44,80,92,4.36,PH,1595451685
528,528,muroto,33.28,134.15,78.46,86,94,2.06,JP,1595451570
529,529,nevel,56.02,29.93,51.89,90,71,8.61,RU,1595451685
530,530,wamba,8.93,8.6,73.22,91,99,0.85,NG,1595451685
531,531,naryan-mar,67.67,53.09,62.15,68,0,9.86,RU,1595451685
532,532,praia,14.92,-23.51,80.6,78,20,9.17,CV,1595451324
533,533,longyearbyen,78.22,15.64,48.2,76,75,13.87,SJ,1595451212
534,534,tromso,69.65,18.96,50.0,87,75,6.93,NO,1595451686
535,535,nizhniy tsasuchey,50.52,115.13,66.04,57,100,7.87,RU,1595451686
536,536,iberia,29.95,-91.75,93.2,56,20,9.17,US,1595451686
537,537,liuzhou,24.31,109.39,78.08,83,0,6.13,CN,1595451687
538,538,khatassy,61.9,129.64,59.0,77,20,6.71,RU,1595451687
539,539,amudat,1.95,34.95,66.49,80,50,4.07,UG,1595451687
540,540,berbera,10.44,45.01,90.88,41,95,23.42,SO,1595451326
541,541,trelew,-43.25,-65.31,41.14,68,100,12.59,AR,1595451514
542,542,yenagoa,4.92,6.26,74.59,92,42,4.5,NG,1595451688
543,543,antsohihy,-14.88,47.99,66.15,60,65,11.81,MG,1595451688
544,544,bahile,10.0,118.79,79.21,86,72,5.03,PH,1595451688
545,545,ipixuna,-1.76,-48.8,82.4,78,40,5.82,BR,1595451326
546,546,alofi,-19.06,-169.92,75.2,94,75,8.05,NU,1595451327
547,547,watsa,3.04,29.54,64.74,99,100,1.72,CD,1595451689
548,548,teguise,29.06,-13.56,73.4,78,20,21.92,ES,1595451689
549,549,dingzhou,38.51,115.0,69.8,83,46,4.47,CN,1595451689
550,550,scottsbluff,41.87,-103.67,88.0,43,1,14.99,US,1595451327
551,551,magistralnyy,56.17,107.45,58.57,87,100,2.64,RU,1595451690
552,552,anchorage,61.22,-149.9,60.8,59,90,4.7,US,1595451573
553,553,kargasok,59.06,80.86,49.53,82,99,8.37,RU,1595451690
554,554,zyryanka,65.75,150.85,76.41,37,70,13.6,RU,1595451691
555,555,santa cruz,-17.8,-63.17,86.0,58,75,13.87,BO,1595451410
556,556,hualmay,-11.1,-77.61,65.26,72,6,11.23,PE,1595451691
557,557,broken hill,-31.95,141.43,39.2,86,0,8.05,AU,1595451691
558,558,bhuj,23.27,69.67,83.28,78,4,16.37,IN,1595451692
559,559,mnogovershinnyy,53.94,139.92,52.34,100,100,2.95,RU,1595451692
560,560,achacachi,-16.05,-68.68,51.82,46,0,9.91,BO,1595451692
561,561,montevideo,-34.83,-56.17,59.0,100,90,6.93,UY,1595451424
562,562,puerto madryn,-42.77,-65.04,41.99,66,100,16.35,AR,1595451651
563,563,manadhoo,5.77,73.38,82.06,78,96,19.42,MV,1595451693
564,564,virginia beach,36.85,-75.98,98.01,44,75,16.11,US,1595451412
565,565,ust-maya,60.42,134.53,58.05,62,95,9.84,RU,1595451693
566,566,vostok,46.49,135.88,61.14,98,96,2.53,RU,1595451694
567,567,turukhansk,65.82,87.98,53.8,70,100,10.0,RU,1595451694
568,568,khorixas,-20.37,14.97,60.87,29,0,10.2,,1595451694
569,569,santa rosalia,27.32,-112.28,88.95,55,73,7.87,MX,1595451694
570,570,arman,59.7,150.17,59.2,65,34,2.86,RU,1595451694
571,571,bubaque,11.28,-15.83,80.85,82,99,10.31,GW,1595451695
572,572,lavassaare,58.51,24.39,57.0,70,0,8.99,EE,1595451695
